[
  {
    "storeName": "Cumbres",
    "latitude": 25.8322,
    "longitude": -100.2978,
    "address": "Ave. Paseo de los Leones No. 3399, Col. Cumbres",
    "country": "Mexico",
    "city": "Monterrey",
    "state": "Nuevo Leon",
    "zipCode": 123
  },
  {
    "storeName": "Chipinque",
    "latitude": 25.749346,
    "longitude": -100.259866,
    "address": "Ave. Gomez Morin #300, Col. del Valle",
    "country": "Mexico",
    "city": "Monterrey",
    "state": "Nuevo Leon",
    "zipCode": 123
  },
  {
    "storeName": "Sendero",
    "latitude": 25.871035,
    "longitude": -100.17329,
    "address": "Ave. Sendero Nte, Col #1001, Privadas de Anáhuac",
    "country": "Mexico",
    "city": "Monterrey",
    "state": "Nuevo Leon",
    "zipCode": 123
  },
  {
    "storeName": "Contry",
    "latitude": 25.7261055,
    "longitude": -100.1750157,
    "address": "Av. Eugenio Garza Sada 4321",
    "country": "Mexico",
    "city": "Monterrey",
    "state": "Nuevo Leon",
    "zipCode": 123
  },
  {
    "storeName": "Cumbres II",
    "latitude": 25.7322,
    "longitude": -100.3978,
    "address": "Ave. Paseo de los Leones No. 3399, Col. Cumbres",
    "country": "Mexico",
    "city": "Monterrey",
    "state": "Nuevo Leon",
    "zipCode": 123
  },
  {
    "storeName": "eFC Zona Valle",
    "latitude": 25.6764098,
    "longitude": -100.3733956,
    "address": "AARON SAENZ 1717 COLONIA SANTA MARIA C.P.",
    "country": "Mexico",
    "city": "Monterrey",
    "state": "Nuevo Leon",
    "zipCode": 123
  },
  {
    "storeName": "Sendero II",
    "latitude": 25.771035,
    "longitude": -100.27329,
    "address": "Ave. Sendero Nte, Col #1001, Privadas de Anáhuac",
    "country": "Mexico",
    "city": "Monterrey",
    "state": "Nuevo Leon",
    "zipCode": 123
  },
  {
    "storeName": "Contry II",
    "latitude": 25.6261055,
    "longitude": -100.2750157,
    "address": "Av. Eugenio Garza Sada 4321",
    "country": "Mexico",
    "city": "Monterrey",
    "state": "Nuevo Leon",
    "zipCode": 123
  },
  {
    "storeName": "Catalog",
    "latitude": 5.7322,
    "longitude": -0.3978,
    "address": "Av Nuevo Leon",
    "country": "Mexico",
    "city": "Monterrey",
    "state": "Nuevo Leon",
    "zipCode": 123
  }
]

